[{"day":0,"time":"07:00","end_time":"08:00","name":"Sunlight of the Spirit","location":"Phone","location_notes":"Dial (605) 313-5932 x400575","address":"Williamsburg, VA, USA","region":"Williamsburg","types":["O","D"],"timezone":"America\/New_York","conference_phone":"+16053135932,,400569#","conference_phone_notes":"Dial (605) 313-5932 x400575","slug":"Sunlight-of-the-Spirit-Sun","updated":"2025-08-22","edit_url":"https:\/\/docs.google.com\/spreadsheets\/d\/1LzVrSE-t-iYMnSmiZtg8449rctjJ8Xn9l-nz9_t4H6k\/edit#gid=0&range=2:2"},{"day":0,"time":"08:30","end_time":"09:30","name":"Morning Serenity Group","location":"Triangle Stepping Stones","address":"3279 Lake Powell Rd, Williamsburg, VA 23185, USA","region":"Williamsburg","types":["O","D"],"timezone":"America\/New_York","slug":"Morning-Serenity-Group-Sun","updated":"2025-01-21","edit_url":"https:\/\/docs.google.com\/spreadsheets\/d\/1LzVrSE-t-iYMnSmiZtg8449rctjJ8Xn9l-nz9_t4H6k\/edit#gid=0&range=3:3"},{"day":0,"time":"10:00","end_time":"11:00","name":"Easy Does It","location":"First Colony Clubhouse","address":"109-115, Pasbehegh Dr, Williamsburg, VA 23185, USA","region":"Williamsburg","types":["O","D"],"timezone":"America\/New_York","slug":"Easy-Does-It","updated":"2023-11-29","edit_url":"https:\/\/docs.google.com\/spreadsheets\/d\/1LzVrSE-t-iYMnSmiZtg8449rctjJ8Xn9l-nz9_t4H6k\/edit#gid=0&range=4:4"},{"day":0,"time":"14:30","end_time":"15:30","name":"Room To Spare","location":"Triangle Stepping Stones","address":"3279 Lake Powell Rd, Williamsburg, VA 23185, USA","region":"Williamsburg","types":["SP"],"timezone":"America\/New_York","slug":"Room-To-Spare","updated":"2021-10-03","edit_url":"https:\/\/docs.google.com\/spreadsheets\/d\/1LzVrSE-t-iYMnSmiZtg8449rctjJ8Xn9l-nz9_t4H6k\/edit#gid=0&range=5:5"},{"day":0,"time":"18:30","end_time":"19:30","name":"Sometimes Slowly","location":"Triangle Stepping Stones","address":"3279 Lake Powell Rd, Williamsburg, VA 23185, USA","region":"Williamsburg","types":["C","B"],"timezone":"America\/New_York","slug":"Sometimes-Slowly","updated":"2023-11-12","edit_url":"https:\/\/docs.google.com\/spreadsheets\/d\/1LzVrSE-t-iYMnSmiZtg8449rctjJ8Xn9l-nz9_t4H6k\/edit#gid=0&range=6:6"},{"day":0,"time":"18:30","end_time":"19:30","name":"Norge Serenity Group","location":"Our Saviour's Lutheran Church","address":"7479 Richmond Rd, Williamsburg, VA 23188, USA","region":"Williamsburg","types":["O","D"],"timezone":"America\/New_York","conference_url":"https:\/\/us02web.zoom.us\/j\/88318429205?pwd=WkpRSjQ2Zm9oUXl6N1lGaWh1YjdaUT09","slug":"Norge-Serenity-Group-Sun","updated":"2022-03-21","edit_url":"https:\/\/docs.google.com\/spreadsheets\/d\/1LzVrSE-t-iYMnSmiZtg8449rctjJ8Xn9l-nz9_t4H6k\/edit#gid=0&range=7:7"},{"day":0,"time":"20:00","end_time":"21:00","name":"AA 101 We Are Not Saints","location":"Triangle Stepping Stones","address":"3279 Lake Powell Rd, Williamsburg, VA 23185, USA","region":"Williamsburg","types":["BE","B"],"timezone":"America\/New_York","slug":"AA-101-We-Are-Not-Saints","updated":"2023-12-03","edit_url":"https:\/\/docs.google.com\/spreadsheets\/d\/1LzVrSE-t-iYMnSmiZtg8449rctjJ8Xn9l-nz9_t4H6k\/edit#gid=0&range=8:8"},{"day":0,"time":"20:00","end_time":"21:00","name":"Primary Purpose","location":"Eastern State","address":"4601 Ironbound Rd, Williamsburg, VA 23188, USA","region":"Williamsburg","types":["O","D"],"timezone":"America\/New_York","slug":"Primary-Purpose-Sun","updated":"2021-10-03","edit_url":"https:\/\/docs.google.com\/spreadsheets\/d\/1LzVrSE-t-iYMnSmiZtg8449rctjJ8Xn9l-nz9_t4H6k\/edit#gid=0&range=9:9"},{"day":1,"time":"07:00","end_time":"08:00","name":"Prayer & Meditation","location":"Bruton Parish Offices (2nd Floor)","address":"201 W Duke of Gloucester St, Williamsburg, VA 23185, USA","region":"Williamsburg","types":["O","D"],"timezone":"America\/New_York","slug":"Prayer-and-Meditation-Mon","updated":"2022-01-13","edit_url":"https:\/\/docs.google.com\/spreadsheets\/d\/1LzVrSE-t-iYMnSmiZtg8449rctjJ8Xn9l-nz9_t4H6k\/edit#gid=0&range=10:10"},{"day":1,"time":"07:00","end_time":"08:00","name":"Sunlight of the Spirit","location":"Phone","location_notes":"Dial (605) 313-5932 x400569","address":"Williamsburg, VA, USA","region":"Williamsburg","types":["O","D"],"timezone":"America\/New_York","conference_phone":"+16053135932,,400569#","conference_phone_notes":"Dial (605) 313-5932 x400575","slug":"Sunlight-of-the-Spirit-Mon","updated":"2025-08-16","edit_url":"https:\/\/docs.google.com\/spreadsheets\/d\/1LzVrSE-t-iYMnSmiZtg8449rctjJ8Xn9l-nz9_t4H6k\/edit#gid=0&range=11:11"},{"day":1,"time":"08:30","end_time":"09:30","name":"Morning Serenity Group","location":"Triangle Stepping Stones","address":"3279 Lake Powell Rd, Williamsburg, VA 23185, USA","region":"Williamsburg","types":["O","D"],"timezone":"America\/New_York","slug":"Morning-Serenity-Group-Mon","updated":"2022-04-13","edit_url":"https:\/\/docs.google.com\/spreadsheets\/d\/1LzVrSE-t-iYMnSmiZtg8449rctjJ8Xn9l-nz9_t4H6k\/edit#gid=0&range=12:12"},{"day":1,"time":"11:00","end_time":"12:00","name":"11th Step @ 11 (11@11)","location":"Common Ground","address":"5810-C Mooretown Road, Williamsburg, VA 23188, USA","region":"Williamsburg","types":["C","D"],"timezone":"America\/New_York","conference_url":"https:\/\/us02web.zoom.us\/j\/87145623665?pwd=6kRRd1v0tKVaSaPGcvkLac8hIgCfOn.1","slug":"11th-Step-at-11","updated":"2024-05-13","edit_url":"https:\/\/docs.google.com\/spreadsheets\/d\/1LzVrSE-t-iYMnSmiZtg8449rctjJ8Xn9l-nz9_t4H6k\/edit#gid=0&range=13:13"},{"day":1,"time":"12:05","end_time":"13:05","name":"Williamsburg Lunchtime","location":"United Methodist Church","address":"500 Jamestown Rd, Williamsburg, VA 23185, USA","region":"Williamsburg","types":["O","LIT"],"timezone":"America\/New_York","conference_url":"https:\/\/us02web.zoom.us\/j\/5313718920?pwd=elNwbVUxSkVEWFpUMmJvLzJUNnJzQT09","slug":"Williamsburg-Lunchtime-Mon","updated":"2022-04-07","edit_url":"https:\/\/docs.google.com\/spreadsheets\/d\/1LzVrSE-t-iYMnSmiZtg8449rctjJ8Xn9l-nz9_t4H6k\/edit#gid=0&range=14:14"},{"day":1,"time":"17:30","end_time":"18:30","name":"Happier Hour","location":"St. Martin's Episcopal Church","address":"1333 Jamestown Rd, Williamsburg, VA 23185, USA","region":"Williamsburg","types":["O","SP"],"timezone":"America\/New_York","slug":"Happier-Hour-Mon","updated":"2024-09-05","edit_url":"https:\/\/docs.google.com\/spreadsheets\/d\/1LzVrSE-t-iYMnSmiZtg8449rctjJ8Xn9l-nz9_t4H6k\/edit#gid=0&range=15:15"},{"day":1,"time":"19:00","end_time":"20:00","name":"Original Williamsburg Monday Night","location":"Williamsburg United Methodist Church","address":"500 Jamestown Rd, Williamsburg, VA 23185, USA","region":"Williamsburg","types":["C","D"],"timezone":"America\/New_York","slug":"Original-Williamsburg-Monday-Night","updated":"2024-04-02","edit_url":"https:\/\/docs.google.com\/spreadsheets\/d\/1LzVrSE-t-iYMnSmiZtg8449rctjJ8Xn9l-nz9_t4H6k\/edit#gid=0&range=16:16"},{"day":1,"time":"19:00","end_time":"20:00","name":"Ham & Eggs Group","location":"Surry United Methodist Church","address":"357 Colonial Trail E, Surry, VA 23883, USA","region":"Surry","types":["O","D"],"timezone":"America\/New_York","slug":"Ham-and-Eggs-Group","updated":"2024-12-10","edit_url":"https:\/\/docs.google.com\/spreadsheets\/d\/1LzVrSE-t-iYMnSmiZtg8449rctjJ8Xn9l-nz9_t4H6k\/edit#gid=0&range=17:17"},{"day":1,"time":"19:00","end_time":"20:00","name":"Fresh Start","location":"Williamsburg Place","address":"5477 Mooretown Rd, Williamsburg, VA 23188, USA","region":"Williamsburg","types":["O","D","X"],"timezone":"America\/New_York","slug":"Fresh-Start-Mon","updated":"2021-10-03","edit_url":"https:\/\/docs.google.com\/spreadsheets\/d\/1LzVrSE-t-iYMnSmiZtg8449rctjJ8Xn9l-nz9_t4H6k\/edit#gid=0&range=18:18"},{"day":1,"time":"19:00","end_time":"20:00","name":"Sacred Sobriety","location":"Triangle Stepping Stones","address":"3279 Lake Powell Rd, Williamsburg, VA 23185, USA","region":"Williamsburg","types":["O","LIT","W","X"],"timezone":"America\/New_York","slug":"Sacred-Sobriety","updated":"2023-08-18","edit_url":"https:\/\/docs.google.com\/spreadsheets\/d\/1LzVrSE-t-iYMnSmiZtg8449rctjJ8Xn9l-nz9_t4H6k\/edit#gid=0&range=19:19"},{"day":1,"time":"20:05","end_time":"21:05","name":"Original Williamsburg Discussion Group","location":"Unitarian Church","address":"3051 Ironbound Road, Williamsburg, VA 23185, USA","region":"Williamsburg","types":["C","D"],"timezone":"America\/New_York","slug":"Original-Williamsburg-Discussion-Group","updated":"2024-07-31","edit_url":"https:\/\/docs.google.com\/spreadsheets\/d\/1LzVrSE-t-iYMnSmiZtg8449rctjJ8Xn9l-nz9_t4H6k\/edit#gid=0&range=20:20"},{"day":2,"time":"07:00","end_time":"08:00","name":"Prayer & Meditation","location":"Bruton Parish Offices (2nd Floor)","address":"201 W Duke of Gloucester St, Williamsburg, VA 23185, USA","region":"Williamsburg","types":["O","D"],"timezone":"America\/New_York","slug":"Prayer-and-Meditation-Tue","updated":"2022-01-13","edit_url":"https:\/\/docs.google.com\/spreadsheets\/d\/1LzVrSE-t-iYMnSmiZtg8449rctjJ8Xn9l-nz9_t4H6k\/edit#gid=0&range=21:21"},{"day":2,"time":"07:00","end_time":"08:00","name":"Sunlight of the Spirit","location":"Phone","location_notes":"Dial (605) 313-5932 x400570","address":"Williamsburg, VA, USA","region":"Williamsburg","types":["O","D"],"timezone":"America\/New_York","conference_phone":"+16053135932,,400569#","conference_phone_notes":"Dial (605) 313-5932 x400575","slug":"Sunlight-of-the-Spirit-Tue","updated":"2025-08-17","edit_url":"https:\/\/docs.google.com\/spreadsheets\/d\/1LzVrSE-t-iYMnSmiZtg8449rctjJ8Xn9l-nz9_t4H6k\/edit#gid=0&range=22:22"},{"day":2,"time":"08:30","end_time":"09:30","name":"Morning Serenity Group","location":"Triangle Stepping Stones","address":"3279 Lake Powell Rd, Williamsburg, VA 23185, USA","region":"Williamsburg","types":["O","D"],"timezone":"America\/New_York","slug":"Morning-Serenity-Group-Tue","updated":"2022-04-13","edit_url":"https:\/\/docs.google.com\/spreadsheets\/d\/1LzVrSE-t-iYMnSmiZtg8449rctjJ8Xn9l-nz9_t4H6k\/edit#gid=0&range=23:23"},{"day":2,"time":"12:05","end_time":"13:05","name":"Williamsburg Lunchtime","location":"United Methodist Church","address":"500 Jamestown Rd, Williamsburg, VA 23185, USA","region":"Williamsburg","types":["O","D"],"timezone":"America\/New_York","conference_url":"https:\/\/us02web.zoom.us\/j\/5313718920?pwd=elNwbVUxSkVEWFpUMmJvLzJUNnJzQT09","slug":"Williamsburg-Lunchtime-Tue","updated":"2022-04-07","edit_url":"https:\/\/docs.google.com\/spreadsheets\/d\/1LzVrSE-t-iYMnSmiZtg8449rctjJ8Xn9l-nz9_t4H6k\/edit#gid=0&range=24:24"},{"day":2,"time":"17:30","end_time":"18:30","name":"Happier Hour","location":"St. Martin's Episcopal Church","address":"1333 Jamestown Rd, Williamsburg, VA 23185, USA","region":"Williamsburg","types":["O","ST"],"timezone":"America\/New_York","slug":"Happier-Hour-Tue","updated":"2024-09-05","edit_url":"https:\/\/docs.google.com\/spreadsheets\/d\/1LzVrSE-t-iYMnSmiZtg8449rctjJ8Xn9l-nz9_t4H6k\/edit#gid=0&range=25:25"},{"day":2,"time":"18:00","end_time":"19:00","name":"Warriors Anonymous Group","location":"Triangle Stepping Stones","address":"3279 Lake Powell Rd, Williamsburg, VA 23185, USA, USA","region":"Williamsburg","types":["C","D"],"timezone":"America\/New_York","slug":"Warriors-Anonymous-Group","updated":"2025-06-17","edit_url":"https:\/\/docs.google.com\/spreadsheets\/d\/1LzVrSE-t-iYMnSmiZtg8449rctjJ8Xn9l-nz9_t4H6k\/edit#gid=0&range=26:26"},{"day":2,"time":"19:00","end_time":"20:00","name":"Norge Serenity Group","location":"Our Saviour's Lutheran Church","address":"7479 Richmond Rd, Williamsburg, VA 23188, USA","region":"Williamsburg","types":["O","D"],"timezone":"America\/New_York","conference_url":"https:\/\/us02web.zoom.us\/j\/88318429205?pwd=WkpRSjQ2Zm9oUXl6N1lGaWh1YjdaUT09","slug":"Norge-Serenity-Group-Tue","updated":"2022-03-21","edit_url":"https:\/\/docs.google.com\/spreadsheets\/d\/1LzVrSE-t-iYMnSmiZtg8449rctjJ8Xn9l-nz9_t4H6k\/edit#gid=0&range=27:27"},{"day":2,"time":"19:00","end_time":"20:00","name":"Life On Life's Terms","location":"Spiritworks","address":"5800 Mooretown Rd, Williamsburg, VA 23188, USA","region":"Williamsburg","types":["O","D","W"],"timezone":"America\/New_York","slug":"Life-On-Lifes-Terms","updated":"2022-01-05","edit_url":"https:\/\/docs.google.com\/spreadsheets\/d\/1LzVrSE-t-iYMnSmiZtg8449rctjJ8Xn9l-nz9_t4H6k\/edit#gid=0&range=28:28"},{"day":2,"time":"19:30","end_time":"20:30","name":"Easier Softer Way","location":"Triangle Stepping Stones","address":"3280 Lake Powell Rd, Williamsburg, VA 23185, USA","region":"Williamsburg","types":["O","LIT"],"timezone":"America\/New_York","slug":"Easier-Softer-Way","updated":"2025-04-23","edit_url":"https:\/\/docs.google.com\/spreadsheets\/d\/1LzVrSE-t-iYMnSmiZtg8449rctjJ8Xn9l-nz9_t4H6k\/edit#gid=0&range=29:29"},{"day":2,"time":"20:00","end_time":"21:00","name":"Williamsburg Big Book","location":"Williamsburg Presbyterian Church","address":"215 Richmond Rd, Williamsburg, VA 23185, USA","region":"Williamsburg","types":["O","B"],"timezone":"America\/New_York","slug":"Williamsburg-Big-Book","updated":"2025-06-17","edit_url":"https:\/\/docs.google.com\/spreadsheets\/d\/1LzVrSE-t-iYMnSmiZtg8449rctjJ8Xn9l-nz9_t4H6k\/edit#gid=0&range=30:30"},{"day":3,"time":"07:00","end_time":"08:00","name":"Prayer & Meditation","location":"Bruton Parish Offices (2nd Floor)","address":"201 W Duke of Gloucester St, Williamsburg, VA 23185, USA","region":"Williamsburg","types":["O","D"],"timezone":"America\/New_York","slug":"Prayer-and-Meditation-Wed","updated":"2022-01-13","edit_url":"https:\/\/docs.google.com\/spreadsheets\/d\/1LzVrSE-t-iYMnSmiZtg8449rctjJ8Xn9l-nz9_t4H6k\/edit#gid=0&range=31:31"},{"day":3,"time":"07:00","end_time":"08:00","name":"Sunlight of the Spirit","location":"Phone","location_notes":"Dial (605) 313-5932 x400571","address":"Williamsburg, VA, USA","region":"Williamsburg","types":["O","D"],"timezone":"America\/New_York","conference_phone":"+16053135932,,400569#","conference_phone_notes":"Dial (605) 313-5932 x400575","slug":"Sunlight-of-the-Spirit-Wed","updated":"2025-08-18","edit_url":"https:\/\/docs.google.com\/spreadsheets\/d\/1LzVrSE-t-iYMnSmiZtg8449rctjJ8Xn9l-nz9_t4H6k\/edit#gid=0&range=32:32"},{"day":3,"time":"08:30","end_time":"09:30","name":"Morning Serenity Group","location":"Triangle Stepping Stones","address":"3279 Lake Powell Rd, Williamsburg, VA 23185, USA","region":"Williamsburg","types":["O","LIT"],"timezone":"America\/New_York","slug":"Morning-Serenity-Group-Wed","updated":"2022-09-19","edit_url":"https:\/\/docs.google.com\/spreadsheets\/d\/1LzVrSE-t-iYMnSmiZtg8449rctjJ8Xn9l-nz9_t4H6k\/edit#gid=0&range=33:33"},{"day":3,"time":"12:05","end_time":"13:05","name":"Williamsburg Lunchtime","location":"United Methodist Church","address":"500 Jamestown Rd, Williamsburg, VA 23185, USA","region":"Williamsburg","types":["O","LIT"],"timezone":"America\/New_York","conference_url":"https:\/\/us02web.zoom.us\/j\/5313718920?pwd=elNwbVUxSkVEWFpUMmJvLzJUNnJzQT09","slug":"Williamsburg-Lunchtime-Wed","updated":"2022-04-07","edit_url":"https:\/\/docs.google.com\/spreadsheets\/d\/1LzVrSE-t-iYMnSmiZtg8449rctjJ8Xn9l-nz9_t4H6k\/edit#gid=0&range=34:34"},{"day":3,"time":"17:30","end_time":"18:30","name":"Happier Hour","location":"St. Martin's Episcopal Church","address":"1333 Jamestown Rd, Williamsburg, VA 23185, USA","region":"Williamsburg","types":["O","D"],"timezone":"America\/New_York","slug":"Happier-Hour-Wed","updated":"2024-09-05","edit_url":"https:\/\/docs.google.com\/spreadsheets\/d\/1LzVrSE-t-iYMnSmiZtg8449rctjJ8Xn9l-nz9_t4H6k\/edit#gid=0&range=35:35"},{"day":3,"time":"19:00","end_time":"20:00","name":"Fresh Start","location":"Williamsburg Place","address":"5477 Mooretown Rd, Williamsburg, VA 23188, USA","region":"Williamsburg","types":["O","SP","X"],"timezone":"America\/New_York","slug":"Fresh-Start-Wed","updated":"2021-10-03","edit_url":"https:\/\/docs.google.com\/spreadsheets\/d\/1LzVrSE-t-iYMnSmiZtg8449rctjJ8Xn9l-nz9_t4H6k\/edit#gid=0&range=36:36"},{"day":3,"time":"20:00","end_time":"21:00","name":"Williamsburg 12 & 12","location":"St Stephen Lutheran Church","address":"612 Jamestown Rd, Williamsburg, VA 23185, USA","region":"Williamsburg","types":["O"],"timezone":"America\/New_York","slug":"Williamsburg-12-and-12","updated":"2025-08-09","edit_url":"https:\/\/docs.google.com\/spreadsheets\/d\/1LzVrSE-t-iYMnSmiZtg8449rctjJ8Xn9l-nz9_t4H6k\/edit#gid=0&range=37:37"},{"day":4,"time":"07:00","end_time":"08:00","name":"Prayer & Meditation","location":"Bruton Parish Offices (2nd Floor)","address":"201 W Duke of Gloucester St, Williamsburg, VA 23185, USA","region":"Williamsburg","types":["O","D"],"timezone":"America\/New_York","slug":"Prayer-and-Meditation-Thu","updated":"2022-01-13","edit_url":"https:\/\/docs.google.com\/spreadsheets\/d\/1LzVrSE-t-iYMnSmiZtg8449rctjJ8Xn9l-nz9_t4H6k\/edit#gid=0&range=38:38"},{"day":4,"time":"07:00","end_time":"08:00","name":"Sunlight of the Spirit","location":"Phone","location_notes":"Dial (605) 313-5932 x400572","address":"Williamsburg, VA, USA","region":"Williamsburg","types":["O","D"],"timezone":"America\/New_York","conference_phone":"+16053135932,,400569#","conference_phone_notes":"Dial (605) 313-5932 x400575","slug":"Sunlight-of-the-Spirit-Thu","updated":"2025-08-19","edit_url":"https:\/\/docs.google.com\/spreadsheets\/d\/1LzVrSE-t-iYMnSmiZtg8449rctjJ8Xn9l-nz9_t4H6k\/edit#gid=0&range=39:39"},{"day":4,"time":"08:30","end_time":"09:30","name":"Morning Serenity Group","location":"Triangle Stepping Stones","address":"3279 Lake Powell Rd, Williamsburg, VA 23185, USA","region":"Williamsburg","types":["O","D"],"timezone":"America\/New_York","slug":"Morning-Serenity-Group-Thu","updated":"2022-04-13","edit_url":"https:\/\/docs.google.com\/spreadsheets\/d\/1LzVrSE-t-iYMnSmiZtg8449rctjJ8Xn9l-nz9_t4H6k\/edit#gid=0&range=40:40"},{"day":4,"time":"12:00","end_time":"13:00","name":"Thursday Noon Men\u201a\u00c4\u00f4s Meeting","location":"Triangle Stepping Stones","address":"3279 Lake Powell Rd, Williamsburg, VA 23185, USA","region":"Williamsburg","types":["C","D","M"],"timezone":"America\/New_York","slug":"Thursday-Noon-Men\u201a\u00c4\u00f4s-Meeting","updated":"2021-10-22","edit_url":"https:\/\/docs.google.com\/spreadsheets\/d\/1LzVrSE-t-iYMnSmiZtg8449rctjJ8Xn9l-nz9_t4H6k\/edit#gid=0&range=41:41"},{"day":4,"time":"12:00","end_time":"13:00","name":"Thursday Noon Women's Meeting","location":"Walnut Hills Baptist Church","address":"1014 Jamestown Rd, Williamsburg, VA 23185, USA","region":"Williamsburg","types":["C","D","W"],"timezone":"America\/New_York","slug":"Thursday-Noon-Women's-Meeting","updated":"2021-10-03","edit_url":"https:\/\/docs.google.com\/spreadsheets\/d\/1LzVrSE-t-iYMnSmiZtg8449rctjJ8Xn9l-nz9_t4H6k\/edit#gid=0&range=42:42"},{"day":4,"time":"12:00","end_time":"13:00","name":"Thursday On-Line Noon Women's Meeting","location":"Zoom","address":"Williamsburg, VA, USA","region":"Williamsburg","types":["C","D","W"],"timezone":"America\/New_York","conference_url":"https:\/\/us02web.zoom.us\/j\/88374789970?pwd=2zP1HCmbM7BcQl7m2U5udfmw6BB07d.1","slug":"Thursday-On-Line-Noon-Women-Meeting","updated":"2025-08-15","edit_url":"https:\/\/docs.google.com\/spreadsheets\/d\/1LzVrSE-t-iYMnSmiZtg8449rctjJ8Xn9l-nz9_t4H6k\/edit#gid=0&range=43:43"},{"day":4,"time":"12:05","end_time":"13:05","name":"Williamsburg Lunchtime","location":"United Methodist Church","address":"500 Jamestown Rd, Williamsburg, VA 23185, USA","region":"Williamsburg","types":["O","D"],"timezone":"America\/New_York","slug":"Williamsburg-Lunchtime-Thu","updated":"2022-04-07","edit_url":"https:\/\/docs.google.com\/spreadsheets\/d\/1LzVrSE-t-iYMnSmiZtg8449rctjJ8Xn9l-nz9_t4H6k\/edit#gid=0&range=44:44"},{"day":4,"time":"17:30","end_time":"18:30","name":"Happier Hour","location":"St. Martin's Episcopal Church","address":"1333 Jamestown Rd, Williamsburg, VA 23185, USA","region":"Williamsburg","types":["O","B"],"timezone":"America\/New_York","slug":"Happier-Hour-Thu","updated":"2024-09-05","edit_url":"https:\/\/docs.google.com\/spreadsheets\/d\/1LzVrSE-t-iYMnSmiZtg8449rctjJ8Xn9l-nz9_t4H6k\/edit#gid=0&range=45:45"},{"day":4,"time":"19:00","end_time":"20:00","name":"Peace and Serenity","location":"Triangle Stepping Stones","address":"3279 Lake Powell Rd, Williamsburg, VA 23185, USA","region":"Williamsburg","types":["O","D","SP","LGBTQ"],"timezone":"America\/New_York","slug":"Peace-and-Serenity","updated":"2022-12-29","edit_url":"https:\/\/docs.google.com\/spreadsheets\/d\/1LzVrSE-t-iYMnSmiZtg8449rctjJ8Xn9l-nz9_t4H6k\/edit#gid=0&range=46:46"},{"day":4,"time":"19:00","end_time":"20:00","name":"Primary Purpose","location":"Williamsburg Baptist Church","address":"227 Richmond Rd, Williamsburg, VA 23185, USA","region":"Williamsburg","types":["O","ST"],"timezone":"America\/New_York","slug":"Primary-Purpose-Thu","updated":"2025-08-09","edit_url":"https:\/\/docs.google.com\/spreadsheets\/d\/1LzVrSE-t-iYMnSmiZtg8449rctjJ8Xn9l-nz9_t4H6k\/edit#gid=0&range=47:47"},{"day":5,"time":"07:00","end_time":"08:00","name":"Prayer & Meditation","location":"Bruton Parish Offices (2nd Floor)","address":"201 W Duke of Gloucester St, Williamsburg, VA 23185, USA","region":"Williamsburg","types":["O","D"],"timezone":"America\/New_York","slug":"Prayer-and-Meditation-Fri","updated":"2022-01-13","edit_url":"https:\/\/docs.google.com\/spreadsheets\/d\/1LzVrSE-t-iYMnSmiZtg8449rctjJ8Xn9l-nz9_t4H6k\/edit#gid=0&range=48:48"},{"day":5,"time":"07:00","end_time":"08:00","name":"Sunlight of the Spirit","location":"Phone","location_notes":"Dial (605) 313-5932 x400573","address":"Williamsburg, VA, USA","region":"Williamsburg","types":["O","D"],"timezone":"America\/New_York","conference_phone":"+16053135932,,400569#","conference_phone_notes":"Dial (605) 313-5932 x400575","slug":"Sunlight-of-the-Spirit-Fri","updated":"2025-08-20","edit_url":"https:\/\/docs.google.com\/spreadsheets\/d\/1LzVrSE-t-iYMnSmiZtg8449rctjJ8Xn9l-nz9_t4H6k\/edit#gid=0&range=49:49"},{"day":5,"time":"08:30","end_time":"09:30","name":"Morning Serenity Group","location":"Triangle Stepping Stones","address":"3279 Lake Powell Rd, Williamsburg, VA 23185, USA","region":"Williamsburg","types":["O","B"],"timezone":"America\/New_York","slug":"Morning-Serenity-Group-Fri","updated":"2022-09-19","edit_url":"https:\/\/docs.google.com\/spreadsheets\/d\/1LzVrSE-t-iYMnSmiZtg8449rctjJ8Xn9l-nz9_t4H6k\/edit#gid=0&range=50:50"},{"day":5,"time":"10:00","end_time":"11:00","name":"Women's Step","location":"Walnut Hills Baptist Church","address":"1014 Jamestown Rd, Williamsburg, VA 23185, USA","region":"Williamsburg","types":["C","W"],"timezone":"America\/New_York","slug":"Womens-Step","updated":"2021-10-03","edit_url":"https:\/\/docs.google.com\/spreadsheets\/d\/1LzVrSE-t-iYMnSmiZtg8449rctjJ8Xn9l-nz9_t4H6k\/edit#gid=0&range=51:51"},{"day":5,"time":"12:05","end_time":"13:05","name":"Williamsburg Lunchtime","location":"United Methodist Church","address":"500 Jamestown Rd, Williamsburg, VA 23185, USA","region":"Williamsburg","types":["O","B"],"timezone":"America\/New_York","conference_url":"https:\/\/us02web.zoom.us\/j\/5313718920?pwd=elNwbVUxSkVEWFpUMmJvLzJUNnJzQT09","slug":"Williamsburg-Lunchtime-Fri","updated":"2022-04-07","edit_url":"https:\/\/docs.google.com\/spreadsheets\/d\/1LzVrSE-t-iYMnSmiZtg8449rctjJ8Xn9l-nz9_t4H6k\/edit#gid=0&range=52:52"},{"day":5,"time":"17:30","end_time":"18:30","name":"Happier Hour","location":"St. Martin's Episcopal Church","address":"1333 Jamestown Rd, Williamsburg, VA 23185, USA","region":"Williamsburg","types":["O","BE"],"timezone":"America\/New_York","slug":"Happier-Hour-Fri","updated":"2024-09-05","edit_url":"https:\/\/docs.google.com\/spreadsheets\/d\/1LzVrSE-t-iYMnSmiZtg8449rctjJ8Xn9l-nz9_t4H6k\/edit#gid=0&range=53:53"},{"day":5,"time":"18:30","end_time":"19:30","name":"Toano Welcomes Change","location":"Lifepointe Christian Church","address":"8841 Richmond Rd, Toano, VA 23168, USA","region":"Toano","types":["O","B"],"timezone":"America\/New_York","slug":"Toano-Welcomes-Change","updated":"2022-10-12","edit_url":"https:\/\/docs.google.com\/spreadsheets\/d\/1LzVrSE-t-iYMnSmiZtg8449rctjJ8Xn9l-nz9_t4H6k\/edit#gid=0&range=54:54"},{"day":5,"time":"19:00","end_time":"20:00","name":"Growth & Maintenance","location":"Grace Baptist Church","address":"1013 Penniman Rd, Williamsburg, VA 23185, USA","region":"Williamsburg","types":["O","D"],"timezone":"America\/New_York","slug":"Growth-and-Maintenance","updated":"2021-10-03","edit_url":"https:\/\/docs.google.com\/spreadsheets\/d\/1LzVrSE-t-iYMnSmiZtg8449rctjJ8Xn9l-nz9_t4H6k\/edit#gid=0&range=55:55"},{"day":5,"time":"19:00","end_time":"20:00","name":"Leader's Choice","location":"Wellspring United Methodist Church","address":"4871 Longhill Rd, Williamsburg, VA 23188, USA","region":"Williamsburg","types":["O","D","LIT"],"timezone":"America\/New_York","slug":"Leaders-Choice","updated":"2023-03-13","edit_url":"https:\/\/docs.google.com\/spreadsheets\/d\/1LzVrSE-t-iYMnSmiZtg8449rctjJ8Xn9l-nz9_t4H6k\/edit#gid=0&range=56:56"},{"day":5,"time":"20:00","end_time":"21:00","name":"Friday Beginners Meeting","location":"Triangle Stepping Stones","address":"3279 Lake Powell Rd, Williamsburg, VA 23185, USA","region":"Williamsburg","types":["O","D"],"timezone":"America\/New_York","slug":"Friday-Beginners-Meeting","updated":"2022-04-13","edit_url":"https:\/\/docs.google.com\/spreadsheets\/d\/1LzVrSE-t-iYMnSmiZtg8449rctjJ8Xn9l-nz9_t4H6k\/edit#gid=0&range=57:57"},{"day":5,"time":"20:00","end_time":"21:00","name":"Any Lengths","location":"Williamsburg Baptist Church","address":"227 Richmond Rd, Williamsburg, VA 23185, USA","region":"Williamsburg","types":["O","D"],"timezone":"America\/New_York","slug":"Any-Lengths-Fri","updated":"2021-10-03","edit_url":"https:\/\/docs.google.com\/spreadsheets\/d\/1LzVrSE-t-iYMnSmiZtg8449rctjJ8Xn9l-nz9_t4H6k\/edit#gid=0&range=58:58"},{"day":5,"time":"21:30","end_time":"22:30","name":"Young & Sober","location":"Triangle Stepping Stones","address":"3279 Lake Powell Rd, Williamsburg, VA 23185, USA","region":"Williamsburg","types":["O","D"],"timezone":"America\/New_York","slug":"Young-and-Sober","updated":"2023-04-07","edit_url":"https:\/\/docs.google.com\/spreadsheets\/d\/1LzVrSE-t-iYMnSmiZtg8449rctjJ8Xn9l-nz9_t4H6k\/edit#gid=0&range=59:59"},{"day":6,"time":"07:00","end_time":"08:00","name":"Sunlight of the Spirit","location":"Phone","location_notes":"Dial (605) 313-5932 x400574","address":"Williamsburg, VA, USA","region":"Williamsburg","types":["O","D"],"timezone":"America\/New_York","conference_phone":"+16053135932,,400569#","conference_phone_notes":"Dial (605) 313-5932 x400575","slug":"Sunlight-of-the-Spirit-Sat","updated":"2025-08-21","edit_url":"https:\/\/docs.google.com\/spreadsheets\/d\/1LzVrSE-t-iYMnSmiZtg8449rctjJ8Xn9l-nz9_t4H6k\/edit#gid=0&range=60:60"},{"day":6,"time":"08:00","end_time":"09:00","name":"Early Bird","location":"Williamsburg House of Mercy","address":"10 Harrison Ave, Williamsburg, VA 23185, USA, USA","region":"Williamsburg","types":["O","D","X"],"timezone":"America\/New_York","slug":"Early-Bird","updated":"2024-11-14","edit_url":"https:\/\/docs.google.com\/spreadsheets\/d\/1LzVrSE-t-iYMnSmiZtg8449rctjJ8Xn9l-nz9_t4H6k\/edit#gid=0&range=61:61"},{"day":6,"time":"08:30","end_time":"09:30","name":"Morning Serenity Group","location":"Triangle Stepping Stones","address":"3279 Lake Powell Rd, Williamsburg, VA 23185, USA","region":"Williamsburg","types":["O","D"],"timezone":"America\/New_York","slug":"Morning-Serenity-Group-Sat","updated":"2025-01-21","edit_url":"https:\/\/docs.google.com\/spreadsheets\/d\/1LzVrSE-t-iYMnSmiZtg8449rctjJ8Xn9l-nz9_t4H6k\/edit#gid=0&range=62:62"},{"day":6,"time":"10:00","end_time":"11:00","name":"Williamsburg Men's","location":"Triangle Stepping Stones","address":"3279 Lake Powell Rd, Williamsburg, VA 23185, USA","region":"Williamsburg","types":["C","D"],"timezone":"America\/New_York","slug":"Williamsburg-Men's","updated":"2022-04-13","edit_url":"https:\/\/docs.google.com\/spreadsheets\/d\/1LzVrSE-t-iYMnSmiZtg8449rctjJ8Xn9l-nz9_t4H6k\/edit#gid=0&range=63:63"},{"day":6,"time":"17:30","end_time":"18:30","name":"Room To Grow","location":"St Stephen Lutheran Church","address":"612 Jamestown Rd, Williamsburg, VA 23185, USA","region":"Williamsburg","types":["O","D","X"],"timezone":"America\/New_York","conference_url":"https:\/\/us02web.zoom.us\/j\/8048961667?pwd=OTBkWTZXbFU2NC9DbXZXK202UVhwQT09","slug":"Room-To-Grow","updated":"2024-08-05","edit_url":"https:\/\/docs.google.com\/spreadsheets\/d\/1LzVrSE-t-iYMnSmiZtg8449rctjJ8Xn9l-nz9_t4H6k\/edit#gid=0&range=64:64"},{"day":6,"time":"18:30","end_time":"19:30","name":"Original Williamsburg Group","location":"Triangle Stepping Stones","address":"3279 Lake Powell Rd, Williamsburg, VA 23185, USA","region":"Williamsburg","types":["C","D"],"timezone":"America\/New_York","slug":"Original-Williamsburg-Group","updated":"2022-04-13","edit_url":"https:\/\/docs.google.com\/spreadsheets\/d\/1LzVrSE-t-iYMnSmiZtg8449rctjJ8Xn9l-nz9_t4H6k\/edit#gid=0&range=65:65"},{"day":6,"time":"20:00","end_time":"21:00","name":"Primary Purpose","location":"Eastern State","address":"4601 Ironbound Rd, Williamsburg, VA 23188, USA","region":"Williamsburg","types":["O","D"],"timezone":"America\/New_York","slug":"Primary-Purpose-Sat","updated":"2021-10-03","edit_url":"https:\/\/docs.google.com\/spreadsheets\/d\/1LzVrSE-t-iYMnSmiZtg8449rctjJ8Xn9l-nz9_t4H6k\/edit#gid=0&range=66:66"},{"day":6,"time":"22:00","end_time":"23:00","name":"Rule 62","location":"Triangle Stepping Stones","address":"3279 Lake Powell Rd, Williamsburg, VA 23185, USA","region":"Williamsburg","types":["O","SP"],"timezone":"America\/New_York","slug":"Rule-62","updated":"2022-02-03","edit_url":"https:\/\/docs.google.com\/spreadsheets\/d\/1LzVrSE-t-iYMnSmiZtg8449rctjJ8Xn9l-nz9_t4H6k\/edit#gid=0&range=67:67"}]